City,Cloudiness,Country,Date,Humidity,Lat,Lng,Max Temp,Wind Speed
kapaa,90,US,1584407979,94,22.08,-159.32,73.4,12.75
crotone,0,IT,1584408293,66,39.09,17.12,49.05,3.71
tiksi,100,RU,1584408293,97,71.69,128.87,-2.81,4.59
kingman,1,US,1584408293,35,35.19,-114.05,73.0,21.92
avarua,100,CK,1584407815,88,-21.21,-159.78,80.6,17.22
guarapari,1,BR,1584408294,83,-20.67,-40.5,79.0,5.82
zhongshu,99,CN,1584408294,93,24.52,103.77,57.72,4.25
codrington,57,AU,1584408294,55,-38.27,141.97,67.41,14.74
jinka,98,ET,1584408294,82,5.65,36.65,71.62,1.57
georgetown,20,MY,1584408294,65,5.41,100.34,82.4,4.7
clyde river,90,CA,1584408295,74,70.47,-68.59,-22.0,5.82
hithadhoo,58,MV,1584408295,68,-0.6,73.08,83.75,8.1
multan,0,PK,1584408200,82,30.2,71.48,62.6,4.88
shimoda,75,JP,1584408295,62,34.67,138.95,48.2,6.93
lorengau,100,PG,1584408295,91,-2.02,147.27,77.68,12.17
sibolga,66,ID,1584408295,95,1.74,98.78,71.65,3.87
casper,90,US,1584408136,86,42.87,-106.31,26.6,9.17
cabo san lucas,5,MX,1584408222,43,22.89,-109.91,78.01,12.75
honiara,20,SB,1584408188,79,-9.43,159.95,87.8,11.41
severnyy,53,RU,1584408296,58,50.68,36.55,28.4,6.71
barrow,75,US,1584408296,84,71.29,-156.79,8.6,5.82
grand gaube,75,MU,1584407930,88,-20.01,57.66,77.0,10.29
darhan,68,MN,1584408296,80,49.49,105.92,27.27,7.02
sitka,90,US,1584408008,80,57.05,-135.33,39.2,6.93
busselton,14,AU,1584408297,91,-33.65,115.33,66.0,4.0
muscle shoals,90,US,1584408297,93,34.74,-87.67,57.99,1.03
myitkyina,83,MM,1584408297,94,25.38,97.4,62.65,4.14
nicoya,59,CR,1584408297,51,10.15,-85.45,82.4,19.46
sorong,84,ID,1584408297,70,-0.88,131.25,83.08,2.75
muzhi,100,RU,1584408297,87,65.37,64.67,21.43,13.6
faanui,12,PF,1584407821,72,-16.48,-151.75,83.14,7.7
thompson,90,CA,1584408031,60,55.74,-97.86,10.4,10.29
port macquarie,78,AU,1584408041,93,-31.43,152.92,71.01,8.05
kahului,75,US,1584407998,61,20.89,-156.47,80.6,10.29
alto araguaia,47,BR,1584408298,92,-17.31,-53.22,69.66,3.13
atuona,55,PF,1584407980,65,-9.8,-139.03,82.49,7.94
dikson,100,RU,1584407992,91,73.51,80.55,0.66,31.63
yulara,0,AU,1584408300,10,-25.24,130.99,87.8,10.29
vestmanna,63,FO,1584408032,69,62.16,-7.17,39.2,18.34
abnub,0,EG,1584408300,67,27.27,31.15,60.8,6.93
cape town,0,ZA,1584407700,77,-33.93,18.42,68.0,2.24
kavaratti,34,IN,1584408301,69,10.57,72.64,82.49,8.61
rawson,53,AR,1584408301,48,-43.3,-65.1,69.94,9.82
rikitea,79,PF,1584408184,78,-23.12,-134.97,80.96,10.89
geraldton,90,AU,1584407997,69,-28.77,114.6,73.4,8.05
ancud,90,CL,1584407964,100,-41.87,-73.82,57.2,4.7
paamiut,6,GL,1584408302,56,61.99,-49.67,-3.33,9.55
mar del plata,0,AR,1584407712,82,-38.0,-57.56,66.0,9.17
ambon,40,ID,1584408302,62,-3.7,128.18,87.8,1.12
pangnirtung,100,CA,1584408302,95,66.15,-65.71,-7.47,6.98
dustlik,91,UZ,1584408302,41,40.52,68.04,63.95,5.06
albany,1,US,1584407739,35,42.6,-73.97,39.99,9.17
baoro,45,CF,1584408302,20,5.67,15.97,69.71,3.04
saskylakh,67,RU,1584407701,93,71.92,114.08,-31.02,13.98
ushuaia,40,AR,1584408156,57,-54.8,-68.3,48.2,23.04
visby,0,SE,1584408303,81,57.64,18.3,35.01,3.36
erenhot,0,CN,1584408303,46,43.65,111.98,34.92,7.87
east london,58,ZA,1584407779,74,-33.02,27.91,67.59,19.44
airai,37,TL,1584408303,69,-8.93,125.41,74.19,2.55
te anau,1,NZ,1584407986,63,-45.42,167.72,46.13,3.6
lebu,64,CL,1584407933,80,-37.62,-73.65,57.42,9.06
puerto ayora,20,EC,1584407916,69,-0.74,-90.35,82.4,6.93
bucak,75,TR,1584408304,85,37.46,30.59,50.0,14.99
tevaitoa,16,PF,1584408304,69,-16.78,-151.5,82.9,6.44
dingle,0,PH,1584408043,74,11.0,122.67,77.05,9.82
tiarei,75,PF,1584408184,62,-17.53,-149.33,87.8,3.36
hermanus,8,ZA,1584408305,74,-34.42,19.23,64.99,11.99
longonjo,100,AO,1584408305,97,-12.91,15.25,62.62,3.85
yellowknife,90,CA,1584407983,48,62.46,-114.35,-4.0,9.17
tarnogskiy gorodok,100,RU,1584408306,88,60.5,43.58,30.87,10.54
port shepstone,95,ZA,1584408306,81,-30.74,30.45,60.48,3.49
road town,20,VG,1584407894,78,18.42,-64.62,78.8,11.41
mataura,84,NZ,1584408306,72,-46.19,168.86,53.01,5.99
assiniboia,0,CA,1584408306,70,49.63,-105.98,19.76,15.26
yilan,75,TW,1584408306,53,24.76,121.75,73.99,2.24
coquimbo,90,CL,1584408053,82,-29.95,-71.34,60.8,5.82
ballina,40,AU,1584408307,53,-28.87,153.57,75.2,18.34
iisalmi,21,FI,1584408307,62,63.56,27.19,24.8,8.05
longyearbyen,20,SJ,1584408212,68,78.22,15.64,-16.6,4.7
birjand,0,IR,1584408307,86,32.87,59.22,39.2,4.7
ashtian,45,IR,1584408308,71,34.52,50.0,42.08,0.69
san vicente,53,AR,1584408151,71,-26.62,-54.13,72.32,2.82
castro,37,BR,1584407851,95,-24.79,-50.01,64.2,3.78
dali,33,CN,1584408308,74,25.7,100.18,46.74,3.04
new norfolk,79,AU,1584408309,40,-42.78,147.06,69.8,11.41
constitucion,82,CL,1584407986,91,-35.33,-72.42,55.74,8.34
hobart,77,AU,1584408309,40,-42.88,147.33,69.8,11.41
victoria,40,HK,1584408255,68,22.29,114.16,71.01,14.99
bengkulu,97,ID,1584408309,84,-3.8,102.27,75.88,3.15
kununurra,0,AU,1584408051,59,-15.77,128.73,89.6,2.24
vestmannaeyjar,100,IS,1584408309,79,63.44,-20.27,40.73,20.54
carnarvon,40,AU,1584408310,65,-24.87,113.63,78.8,16.11
malatya,75,TR,1584408136,87,38.5,38.0,44.6,3.36
itupiranga,20,BR,1584408310,94,-5.13,-49.33,78.8,2.24
parkersburg,90,US,1584408310,76,39.27,-81.56,50.0,6.93
ladario,21,BR,1584408310,66,-19.0,-57.6,81.37,1.16
houlton,1,US,1584408310,41,46.13,-67.84,21.2,3.36
rudbar,36,AF,1584408311,50,30.15,62.6,64.11,2.19
berlevag,87,NO,1584408311,77,70.86,29.09,26.49,40.06
port alfred,49,ZA,1584407905,83,-33.59,26.89,64.0,4.0
norman wells,90,CA,1584408035,85,65.28,-126.83,10.4,4.09
san joaquin,97,VE,1584408312,78,10.26,-67.79,76.21,7.63
bluff,86,NZ,1584408312,72,-46.6,168.33,53.01,5.99
mahajanga,20,MG,1584408028,88,-15.72,46.32,77.0,2.24
mehamn,100,NO,1584407983,80,71.04,27.85,21.83,32.84
cap malheureux,75,MU,1584408015,88,-19.98,57.61,77.0,10.29
menongue,100,AO,1584408313,98,-14.66,17.69,62.8,5.48
sola,75,VU,1584407994,70,-13.88,167.55,87.8,6.93
donskoye,85,RU,1584408313,68,45.46,41.97,24.8,2.24
flinders,40,AU,1584408047,49,-34.58,150.86,70.0,10.29
storm lake,90,US,1584408313,100,42.64,-95.21,39.2,8.05
cam ranh,40,VN,1584408313,83,11.92,109.16,84.2,10.29
kupang,20,ID,1584408033,66,-10.17,123.58,86.0,6.93
bambous virieux,75,MU,1584407770,88,-20.34,57.76,77.0,10.29
byron bay,40,AU,1584408314,53,-28.65,153.62,77.0,18.34
baie-comeau,75,CA,1584408314,72,49.22,-68.15,14.0,7.29
pringsewu,94,ID,1584408314,94,-5.36,104.97,72.99,2.24
punta arenas,75,CL,1584407852,61,-53.15,-70.92,50.0,18.34
poum,7,NC,1584408009,77,-20.23,164.02,80.49,14.14
claremore,90,US,1584408187,100,36.31,-95.62,50.0,3.36
vaini,75,TO,1584408315,74,-21.2,-175.2,87.8,19.46
cidreira,100,BR,1584407938,80,-30.18,-50.21,72.7,10.49
nisia floresta,40,BR,1584408315,88,-6.09,-35.21,78.8,2.24
grand falls,20,CA,1584408315,48,47.05,-67.74,19.4,5.82
hasaki,75,JP,1584408048,33,35.73,140.83,50.0,2.24
deputatskiy,94,RU,1584408014,84,69.3,139.9,-10.25,1.95
maues,60,BR,1584408316,82,-3.38,-57.72,78.21,2.62
saint-philippe,98,RE,1584407714,88,-21.36,55.77,75.2,5.82
hilo,40,US,1584408008,57,19.73,-155.09,80.6,13.87
tilichiki,100,RU,1584408042,91,60.47,166.1,31.42,17.92
pailon,75,BO,1584408316,94,-17.65,-62.75,75.2,3.09
nanortalik,0,GL,1584407916,57,60.14,-45.24,18.93,39.86
batagay,88,RU,1584408052,81,67.63,134.63,-2.11,2.77
salalah,75,OM,1584408006,73,17.02,54.09,77.0,5.82
charyshskoye,94,RU,1584408317,77,51.4,83.56,30.9,2.08
nabire,95,ID,1584407966,91,-3.37,135.48,78.66,0.4
chaves,1,US,1584408317,56,33.38,-104.45,68.0,11.41
katsuura,20,JP,1584407907,45,35.13,140.3,46.0,6.93
vilcun,66,CL,1584408318,82,-38.65,-72.23,59.0,6.93
san angelo,75,US,1584408273,73,31.46,-100.44,69.8,5.82
saint george,1,US,1584408057,51,37.1,-113.58,64.0,13.87
hofn,74,IS,1584408049,85,64.25,-15.21,39.15,40.98
saint-augustin,0,CA,1584408215,82,51.23,-58.65,13.59,12.86
truth or consequences,1,US,1584408318,14,33.13,-107.25,69.8,16.11
xuddur,18,SO,1584408032,86,4.12,43.89,73.2,16.06
takoradi,100,GH,1584408319,92,4.88,-1.76,78.89,4.34
khatanga,8,RU,1584408319,97,71.97,102.5,-31.31,7.72
caravelas,100,BR,1584408319,80,-17.71,-39.25,80.82,8.32
banswada,0,IN,1584408319,56,18.38,77.88,74.62,7.09
beloha,73,MG,1584408320,95,-25.17,45.05,69.48,8.32
gweta,55,BW,1584408320,57,-20.18,25.23,72.39,8.88
kristiinankaupunki,49,FI,1584408320,75,62.27,21.38,29.17,6.87
aldan,99,RU,1584408320,93,58.6,125.39,19.38,7.67
nouadhibou,83,MR,1584408320,72,20.93,-17.03,64.4,23.04
qaanaaq,66,GL,1584407990,47,77.48,-69.36,-3.71,8.34
atambua,84,ID,1584407989,75,-9.11,124.89,79.93,0.92
ranau,20,MY,1584408321,70,5.95,116.66,84.2,3.36
jamestown,90,US,1584407980,80,42.1,-79.24,42.01,6.93
mayor pablo lagerenza,11,PY,1584408321,68,-19.93,-60.77,80.37,3.33
chokurdakh,0,RU,1584408017,87,70.63,147.92,-13.54,2.08
saldanha,0,ZA,1584407919,49,-33.01,17.94,69.8,5.82
nikolskoye,43,RU,1584408322,68,59.7,30.79,30.2,4.54
tasiilaq,100,GL,1584407845,78,65.61,-37.64,12.2,1.12
merauke,25,ID,1584408322,64,-8.47,140.33,85.6,5.46
kaeo,100,NZ,1584407804,69,-35.1,173.78,66.99,11.99
kalga,20,RU,1584408322,82,50.93,118.9,18.77,3.71
lao cai,92,VN,1584408323,88,22.48,103.95,68.36,0.6
port moresby,90,PG,1584408146,94,-9.44,147.18,78.8,11.41
manali,40,IN,1584408323,94,13.17,80.27,81.0,2.24
ilulissat,98,GL,1584408007,48,69.22,-51.1,-4.0,14.99
havoysund,40,NO,1584408323,79,71.0,24.66,24.8,53.02
bathsheba,20,BB,1584408018,73,13.22,-59.52,77.0,9.17
klamath falls,75,US,1584408324,61,42.22,-121.78,46.99,18.34
charters towers,59,AU,1584408324,53,-20.1,146.27,79.41,10.92
bandarbeyla,98,SO,1584407928,78,9.49,50.81,79.14,11.43
mahebourg,75,MU,1584407965,88,-20.41,57.7,77.0,10.29
dzhebariki-khaya,97,RU,1584408324,84,62.22,135.8,-1.64,0.74
leningradskiy,100,RU,1584407990,78,69.38,178.42,24.89,11.03
bethel,90,US,1584408015,69,41.37,-73.41,39.99,11.41
xuanhua,0,CN,1584408325,36,40.61,115.04,40.24,6.2
humaita,100,BR,1584408325,97,-7.51,-63.02,75.31,2.37
conner,93,PH,1584408325,81,17.8,121.33,70.45,1.03
leeton,2,AU,1584408325,38,-34.57,146.4,75.2,11.41
fereydunshahr,75,IR,1584408325,83,32.94,50.12,29.5,3.91
clearwater,75,US,1584408089,73,27.97,-82.8,79.0,9.17
santiago,0,CL,1584408085,63,-33.46,-70.65,62.6,11.41
upernavik,0,GL,1584407996,53,72.79,-56.15,-18.56,8.32
vardo,77,NO,1584408326,81,70.37,31.11,24.33,31.07
fortuna,90,US,1584407992,66,40.6,-124.16,50.0,8.05
sao raimundo nonato,100,BR,1584408326,94,-9.02,-42.7,72.43,0.98
maniitsoq,2,GL,1584407998,75,65.42,-52.9,0.57,15.99
quelimane,78,MZ,1584408327,91,-17.88,36.89,76.05,7.11
severo-kurilsk,91,RU,1584407956,78,50.68,156.12,22.84,3.8
mareeba,75,AU,1584407945,74,-17.0,145.43,84.0,18.34
port hardy,5,CA,1584408024,48,50.7,-127.42,48.2,5.82
nadym,100,RU,1584408327,87,65.53,72.52,16.86,20.56
guerrero negro,71,MX,1584408042,63,27.98,-114.06,62.53,16.82
taree,77,AU,1584408057,93,-31.9,152.47,71.01,8.05
richards bay,30,ZA,1584408042,66,-28.78,32.04,72.09,16.69
bredasdorp,1,ZA,1584407992,77,-34.53,20.04,64.99,16.11
sao filipe,67,CV,1584407926,79,14.9,-24.5,68.61,21.18
gambela,61,ET,1584408328,61,8.25,34.58,78.06,2.84
saint-pierre,75,RE,1584408328,88,-21.34,55.48,75.2,4.7
butaritari,41,KI,1584407991,76,3.07,172.79,84.36,11.48
puerto madero,20,MX,1584408329,74,14.72,-92.42,84.2,2.24
dehloran,39,IR,1584408329,57,32.69,47.27,63.9,2.71
loandjili,75,CG,1584408329,94,-4.76,11.86,80.6,2.24
grindavik,90,IS,1584408329,100,63.84,-22.43,33.8,8.05
brawley,75,US,1584408329,37,32.98,-115.53,71.6,20.8
tabas,5,IR,1584408329,67,33.6,56.92,57.2,4.7
flin flon,100,CA,1584408330,84,54.77,-101.86,12.74,12.55
dunedin,100,NZ,1584407954,53,-45.87,170.5,55.0,8.01
sayyan,38,YE,1584408065,61,15.17,44.32,59.32,2.77
otradnoye,25,RU,1584408330,68,59.78,30.82,30.2,5.1
chuy,0,UY,1584407976,69,-33.7,-53.46,64.76,8.55
mwense,95,ZM,1584408330,96,-10.38,28.7,65.55,1.34
narsaq,4,GL,1584408331,80,60.92,-46.05,1.85,1.9
dauriya,11,RU,1584408331,87,49.93,116.87,15.08,7.99
henties bay,1,NA,1584408029,93,-22.12,14.28,61.0,3.11
tuktoyaktuk,90,CA,1584407779,92,69.45,-133.04,17.6,25.28
torbay,5,CA,1584407866,66,47.67,-52.73,17.01,2.24
boden,83,SE,1584408331,68,65.83,21.69,28.4,5.82
bambanglipuro,100,ID,1584407982,86,-7.95,110.28,77.68,1.39
launceston,75,AU,1584408058,59,-41.45,147.17,66.99,14.99
san patricio,20,MX,1584407993,78,19.22,-104.7,80.6,9.17
cayenne,40,GF,1584407980,83,4.93,-52.33,78.8,3.36
saint anthony,20,US,1584407824,55,45.02,-93.22,35.6,17.22
nome,90,US,1584407890,92,64.5,-165.41,30.2,12.75
oksfjord,40,NO,1584408332,79,70.24,22.35,26.01,53.02
vila franca do campo,20,PT,1584408058,87,37.72,-25.43,55.4,3.36
taiyuan,0,CN,1584408333,24,37.87,112.56,48.2,4.47
hami,0,CN,1584408333,25,42.8,93.45,39.16,3.67
margate,29,GB,1584408333,86,51.38,1.39,44.01,6.93
sur,0,OM,1584407928,68,22.57,59.53,64.92,4.79
astoria,1,US,1584408334,50,46.19,-123.83,60.01,9.17
kargasok,0,RU,1584408334,93,59.06,80.86,1.53,4.23
belaya gora,0,RU,1584408133,93,68.53,146.42,-13.16,1.68
azul,0,AR,1584408334,68,-36.78,-59.86,66.0,6.73
ribeira grande,36,PT,1584408025,87,38.52,-28.7,58.46,11.54
arraial do cabo,25,BR,1584407991,85,-22.97,-42.03,78.8,23.22
binzhou,0,CN,1584408335,52,37.37,118.02,51.89,3.78
port elizabeth,53,ZA,1584407975,77,-33.92,25.57,64.4,21.92
fereydun kenar,90,IR,1584408335,100,36.69,52.52,50.0,9.17
olyka,100,UA,1584408335,70,50.72,25.81,37.96,13.56
hay river,75,CA,1584407886,64,60.82,-115.8,-2.2,8.05
lazo,0,RU,1584408336,60,43.38,133.9,29.21,2.17
ginda,0,IN,1584408336,44,30.69,78.49,44.53,5.59
jacareacanga,94,BR,1584408336,85,-6.22,-57.75,76.53,0.78
zhigansk,99,RU,1584408013,97,66.77,123.37,-7.01,15.52
conceicao da barra,100,BR,1584408336,78,-18.59,-39.73,80.83,8.93
itarema,100,BR,1584408336,89,-2.92,-39.92,75.47,0.89
kasongo,100,CD,1584408336,93,-4.45,26.67,72.36,5.28
dicabisagan,98,PH,1584408052,83,17.08,122.42,72.03,8.43
sisimiut,0,GL,1584408337,76,66.94,-53.67,-13.0,14.32
mitsamiouli,3,KM,1584408337,72,-11.38,43.28,82.85,5.23
bud,90,US,1584408337,87,39.45,-86.18,46.4,3.24
cap-aux-meules,5,CA,1584408337,72,47.38,-61.86,14.0,3.76
provideniya,90,RU,1584407920,92,64.38,-173.3,28.4,13.42
cabedelo,75,BR,1584408337,94,-6.98,-34.83,78.8,5.73
altay,90,CN,1584408338,40,47.87,88.12,28.06,6.98
quatre cocos,75,MU,1584407856,88,-20.21,57.76,77.0,10.29
beira,75,MZ,1584408338,69,-19.84,34.84,80.6,19.46
marshalltown,90,US,1584408338,75,42.05,-92.91,43.0,5.37
yarada,20,IN,1584408156,100,17.65,83.27,75.2,4.7
pevek,100,RU,1584407999,76,69.7,170.31,25.97,28.03
la ronge,40,CA,1584408044,48,55.1,-105.28,17.6,17.22
mizdah,36,LY,1584408339,83,31.45,12.98,53.37,20.58
maningrida,0,AU,1584408339,66,-12.07,134.27,82.4,6.24
port-gentil,99,GA,1584408339,78,-0.72,8.78,82.63,6.62
pocola,90,US,1584408339,100,35.23,-94.48,50.0,4.7
hun,0,LY,1584408339,65,29.13,15.95,60.33,4.12
nizhniy kuranakh,98,RU,1584408339,94,58.84,125.49,21.2,6.11
cobija,100,BO,1584408339,97,-11.03,-68.77,74.66,3.47
beyneu,100,KZ,1584408340,95,45.32,55.2,36.32,16.4
kunming,20,CN,1584408239,81,25.04,102.72,53.6,0.63
lompoc,90,US,1584407980,76,34.64,-120.46,52.0,4.7
hosakote,20,IN,1584408340,70,14.28,77.17,73.56,5.21
buta,100,CD,1584408271,62,2.79,24.73,74.26,0.96
isangel,75,VU,1584407996,74,-19.55,169.27,86.0,13.87
nenjiang,100,CN,1584408341,90,49.18,125.22,20.21,5.53
ponta do sol,75,PT,1584407780,51,32.67,-17.1,60.8,18.34
mogadishu,71,SO,1584408049,81,2.04,45.34,83.14,19.3
tocopilla,63,CL,1584407964,59,-22.09,-70.2,57.06,2.57
pirajui,10,BR,1584408341,100,-22.0,-49.46,77.0,1.99
bardiyah,87,LY,1584407990,71,31.76,25.09,57.34,23.38
hualmay,72,PE,1584408342,73,-11.1,-77.61,73.17,3.85
ranong,40,TH,1584408342,74,9.97,98.63,84.2,4.7
ardesen,90,TR,1584408342,93,41.19,40.99,37.4,4.7
harstad,100,NO,1584408342,74,68.8,16.53,30.0,12.75
jinchang,5,CN,1584408012,28,38.5,102.17,32.63,6.02
ixtapa,75,MX,1584407961,78,20.7,-105.2,77.0,4.7
poitiers,90,FR,1584408343,100,46.58,0.33,51.01,4.7
corn island,5,NI,1584408126,78,12.17,-83.04,80.02,11.74
talnakh,10,RU,1584408343,83,69.49,88.4,-13.0,8.95
kalmunai,100,LK,1584408343,76,7.42,81.82,82.47,12.75
tsiroanomandidy,0,MG,1584408343,96,-18.77,46.03,66.04,0.72
troitsko-pechorsk,100,RU,1584408344,91,62.71,56.2,21.58,10.38
lucea,20,JM,1584408344,47,18.45,-78.17,78.8,9.17
kaitangata,100,NZ,1584407911,60,-46.28,169.85,50.92,8.66
egvekinot,100,RU,1584408344,95,66.32,-179.17,20.28,8.34
hobyo,93,SO,1584408345,72,5.35,48.53,80.6,15.32
baherden,68,TM,1584408345,43,38.44,57.43,63.14,7.27
mandalgovi,95,MN,1584408345,37,45.76,106.27,33.85,14.2
faya,0,SA,1584408059,77,18.39,42.45,62.6,4.7
barcelona,75,ES,1584408088,82,41.39,2.16,59.0,19.46
bafra,90,TR,1584408345,78,41.57,35.91,33.8,2.24
aleksandrovsk-sakhalinskiy,85,RU,1584408346,77,50.9,142.16,19.87,10.51
rohnert park,20,US,1584408346,62,38.34,-122.7,54.0,8.05
the valley,20,AI,1584408336,78,18.22,-63.06,78.01,4.7
adrar,64,MR,1584408346,19,20.5,-10.07,67.39,8.95
broome,90,US,1584408064,44,42.25,-75.83,44.6,12.75
qasigiannguit,98,GL,1584408346,48,68.82,-51.19,-4.0,14.99
russell,90,US,1584408347,82,32.35,-85.2,71.01,11.41
energetik,56,RU,1584408347,82,51.74,58.79,23.4,9.01
alice springs,0,AU,1584408014,26,-23.7,133.88,82.4,13.87
doha,1,QA,1584408293,83,25.29,51.53,73.0,4.7
san quintin,67,MX,1584408049,62,30.48,-115.95,58.98,8.12
kavieng,83,PG,1584407910,73,-2.57,150.8,84.24,8.1
ewa beach,90,US,1584408347,100,21.32,-158.01,78.8,6.93
dandong,17,CN,1584408348,68,40.13,124.39,36.25,2.46
zavodskoy,43,RU,1584408348,51,43.46,132.29,35.6,1.3
ekhabi,80,RU,1584408348,91,53.51,142.97,13.19,6.76
iwanai,100,JP,1584408312,73,42.97,140.51,33.17,13.89
floro,100,NO,1584408078,86,61.6,5.03,39.99,33.33
westport,1,US,1584408007,64,41.14,-73.36,41.0,8.05
lulea,91,SE,1584408349,68,65.58,22.15,28.4,5.82
alyangula,0,AU,1584408025,59,-13.85,136.42,89.6,9.17
souillac,75,MU,1584408015,88,-20.52,57.52,77.0,10.29
freeport,90,US,1584407739,65,40.66,-73.58,42.01,10.29
comodoro rivadavia,75,AR,1584408349,72,-45.87,-67.5,64.4,11.41
la serena,90,CL,1584408334,82,-29.91,-71.25,60.8,5.82
lasa,22,IT,1584408349,85,46.62,10.7,39.99,2.24
faro,20,PT,1584408258,66,37.02,-7.93,53.6,10.29
huarmey,78,PE,1584408350,64,-10.07,-78.15,75.54,4.25
anadyr,90,RU,1584408020,92,64.75,177.48,30.2,33.55
mulanje,75,MW,1584408350,97,-16.03,35.5,64.51,6.53
aksu,69,CN,1584408010,29,41.12,80.26,41.41,4.74
nishihara,20,JP,1584408350,55,26.18,127.76,64.4,3.36
mittagong,40,AU,1584408351,49,-34.45,150.45,73.4,9.17
ucluelet,5,CA,1584407993,57,48.93,-125.55,57.0,10.29
tateyama,75,JP,1584408000,42,34.98,139.87,48.2,6.93
havelock,1,US,1584408351,71,34.88,-76.9,55.99,9.17
semnan,61,IR,1584408077,53,35.57,53.4,56.73,3.42
axim,100,GH,1584408351,92,4.87,-2.24,78.89,4.34
kissidougou,73,GN,1584408351,77,9.18,-10.1,75.69,6.44
siocon,0,PH,1584408352,71,7.71,122.14,79.83,2.62
fairbanks,90,US,1584407832,93,64.84,-147.72,34.0,4.7
cockburn town,10,TC,1584408352,75,21.46,-71.14,75.45,16.87
buala,66,SB,1584408041,65,-8.14,159.59,84.97,4.76
kahuta,11,PK,1584408352,100,33.59,73.39,57.99,4.7
kungurtug,99,RU,1584408352,73,50.6,97.52,18.03,0.56
lincoln,90,US,1584408269,87,40.8,-96.67,43.0,5.82
praia da vitoria,40,PT,1584407995,82,38.73,-27.07,60.8,14.07
bouna,100,CI,1584408353,48,9.27,-3.0,83.75,4.61
kodiak,75,US,1584407985,70,57.79,-152.41,42.8,6.93
husavik,90,IS,1584407987,85,66.04,-17.34,33.8,50.55
kruisfontein,3,ZA,1584407911,75,-34.0,24.73,61.05,20.38
taksimo,100,RU,1584408031,92,56.34,114.88,16.14,0.51
palmas bellas,20,PA,1584408354,69,9.23,-80.09,80.01,8.05
padang,57,ID,1584407902,90,-0.95,100.35,69.82,5.79
san-pedro,100,CI,1584408054,80,4.75,-6.64,83.01,15.01
monte alegre,15,BR,1584408354,72,-2.01,-54.07,79.11,6.02
aklavik,75,CA,1584408014,79,68.22,-135.01,23.0,17.22
port lincoln,80,AU,1584407975,26,-34.73,135.87,81.05,13.18
sterling,90,US,1584408355,57,39.01,-77.43,48.99,10.29
wukari,49,NG,1584408355,12,7.85,9.78,75.65,2.46
torrox,20,ES,1584408355,66,36.76,-3.95,53.01,5.82
charlestown,75,AU,1584408355,88,-32.95,151.67,71.01,5.82
filingue,100,NE,1584408355,11,14.35,3.32,80.29,8.93
port augusta,72,AU,1584408356,22,-32.5,137.77,87.8,21.92
cururupu,100,BR,1584408356,99,-1.83,-44.87,73.17,0.56
sao joao da barra,0,BR,1584407999,88,-21.64,-41.05,77.0,9.17
palmas,75,BR,1584408356,94,-10.21,-48.36,75.2,4.7
voloshka,74,RU,1584408011,93,61.33,40.09,20.37,5.53
rapid valley,90,US,1584408357,79,44.06,-103.15,28.0,5.82
beringovskiy,100,RU,1584408022,96,63.05,179.32,31.62,21.14
bull savanna,45,JM,1584408357,81,17.89,-77.59,70.68,2.62
saint-leu,75,RE,1584408357,88,-21.15,55.28,75.2,4.7
lahij,20,YE,1584407983,81,13.17,44.58,73.31,8.77
srivardhan,0,IN,1584408357,50,18.03,73.02,75.56,5.32
guangyuan,100,CN,1584408357,43,32.44,105.82,50.0,4.05
iracoubo,60,GF,1584408358,79,5.48,-53.2,80.29,15.73
camana,99,PE,1584408358,89,-16.62,-72.71,65.55,3.18
ayia galini,75,GR,1584408358,58,35.1,24.68,53.6,31.09
natitingou,100,BJ,1584408358,42,10.3,1.38,80.6,4.7
sambava,99,MG,1584408358,96,-14.27,50.17,72.16,1.77
chimoio,90,MZ,1584408358,100,-19.12,33.48,69.8,5.75
maxixe,6,MZ,1584408358,80,-23.86,35.35,77.54,17.25
ouango,89,CF,1584408359,46,4.31,22.56,79.03,1.16
vila velha,1,BR,1584407918,83,-20.33,-40.29,79.0,5.82
nuuk,0,GL,1584408359,59,64.18,-51.72,3.2,19.46
pryazha,5,RU,1584408359,79,61.69,33.62,23.0,6.71
aconibe,99,GQ,1584408359,97,1.3,10.94,69.15,4.0
marsaxlokk,77,MT,1584408359,87,35.84,14.54,59.0,23.04
sri aman,75,MY,1584408359,88,1.24,111.46,80.6,3.36
ratnagiri,0,IN,1584408360,58,16.98,73.3,70.66,1.77
argentan,49,FR,1584408360,100,48.75,-0.02,45.0,6.93
mbuji-mayi,99,CD,1584408360,89,-6.15,23.6,71.89,2.39
wencheng,66,CN,1584408360,56,33.06,113.8,56.48,8.88
karratha,0,AU,1584408007,70,-20.74,116.85,85.35,8.3
sept-iles,20,CA,1584408360,76,50.2,-66.38,3.99,2.24
novyy urengoy,100,RU,1584408360,94,66.08,76.63,7.56,18.37
saint andrews,90,US,1584408361,71,34.05,-81.13,57.2,5.82
shenkursk,84,RU,1584408361,86,62.11,42.9,25.09,8.57
skjervoy,100,NO,1584408361,70,70.03,20.97,30.18,27.27
puerto leguizamo,71,CO,1584408361,70,-0.19,-74.78,81.54,1.9
klaksvik,69,FO,1584408003,69,62.23,-6.59,39.2,18.34
odweyne,11,SO,1584408306,72,9.41,45.06,68.13,2.84
tautira,75,PF,1584408361,62,-17.73,-149.15,87.8,3.36
samarai,71,PG,1584408047,59,-10.62,150.67,85.51,3.15
ambilobe,85,MG,1584408362,93,-13.2,49.05,75.74,3.44
kirkenes,38,NO,1584408362,73,69.73,30.05,21.2,36.91
tallahassee,1,US,1584407797,69,30.44,-84.28,73.4,6.93
walvis bay,1,NA,1584408017,93,-22.96,14.51,61.0,2.24
port blair,81,IN,1584408017,77,11.67,92.75,82.56,8.41
petropavlovsk-kamchatskiy,22,RU,1584408363,49,53.05,158.65,26.6,11.18
nongan,90,CN,1584407978,86,44.38,125.17,33.8,6.71
carballo,16,ES,1584408363,76,43.21,-8.69,52.0,9.17
laguna,90,US,1584407968,75,38.42,-121.42,52.0,3.44
sinnamary,60,GF,1584408363,79,5.38,-52.95,80.29,15.73
jangaon,0,IN,1584408363,80,17.72,79.18,71.55,4.5
samfya,97,ZM,1584408364,92,-11.36,29.56,65.8,4.59
rio gallegos,43,AR,1584408364,50,-51.62,-69.22,51.8,14.99
usinsk,100,RU,1584408364,96,65.99,57.53,27.41,23.11
avera,90,US,1584408364,81,33.19,-82.53,62.6,5.82
myaundzha,89,RU,1584408364,75,63.05,147.19,-10.32,4.18
kysyl-syr,99,RU,1584408364,97,63.9,122.76,11.52,2.82
rehoboth,94,NA,1584408365,47,-23.32,17.08,71.74,4.12
ericeira,20,PT,1584408365,71,38.96,-9.42,54.0,12.75
marquette,90,US,1584408365,97,46.53,-87.63,35.01,8.05
kita,29,ML,1584408365,10,13.03,-9.49,79.52,5.21
riyadh,0,SA,1584407932,59,24.69,46.72,60.8,6.35
lagoa,0,PT,1584407779,81,39.05,-27.98,62.17,8.99
basoko,52,CD,1584408365,94,1.24,23.62,71.87,2.68
solnechnyy,0,RU,1584408034,82,50.72,136.63,18.32,3.87
jumla,0,NP,1584408366,34,29.27,82.18,28.45,5.82
vanimo,100,PG,1584408366,81,-2.67,141.3,79.81,5.68
yumen,0,CN,1584408016,25,40.28,97.2,33.82,11.21
la plata,0,AR,1584408312,82,-34.92,-57.95,69.8,4.7
palmer,40,US,1584408366,55,42.16,-72.33,36.0,16.11
ankang,81,CN,1584408366,62,32.68,109.02,51.82,1.81
porto empedocle,0,IT,1584408367,89,37.29,13.53,51.01,9.42
shellbrook,20,CA,1584408367,53,53.22,-106.4,24.8,10.29
udachnyy,100,RU,1584408367,83,66.42,112.4,-7.6,6.71
mount gambier,60,AU,1584408012,35,-37.83,140.77,73.4,12.75
araxa,6,BR,1584408367,91,-19.59,-46.94,66.42,1.41
hafizabad,0,PK,1584408227,56,32.07,73.69,56.16,1.25
borba,95,BR,1584408367,84,-4.39,-59.59,77.7,0.4
pedernales,20,DO,1584408368,69,18.04,-71.74,78.8,6.93
hargeysa,19,SO,1584408368,88,9.56,44.06,65.35,1.25
badajoz,67,ES,1584408292,86,38.67,-6.17,41.0,4.0
eregli,100,TR,1584408368,95,37.51,34.05,30.79,7.81
cartagena del chaira,72,CO,1584408167,76,1.33,-74.84,78.85,1.57
tingo maria,99,PE,1584408368,96,-9.29,-76.01,61.5,2.06
ugoofaaru,48,MV,1584408369,78,5.67,73.0,82.99,12.73
aykhal,100,RU,1584407988,83,66.0,111.5,-7.6,8.95
parker,90,US,1584408369,82,32.77,-97.8,68.0,4.7
cootamundra,0,AU,1584408369,43,-34.65,148.03,73.0,1.99
mananara,43,MG,1584408369,82,-16.17,49.77,78.57,9.17
muisne,100,EC,1584408369,84,0.6,-80.03,76.53,2.46
batticaloa,73,LK,1584408370,93,7.71,81.69,74.3,1.14
kamenka,0,RU,1584407979,78,51.32,42.77,26.91,6.55
sawakin,12,SD,1584408370,72,19.11,37.33,74.05,7.72
patitirion,0,GR,1584408370,72,39.15,23.87,41.0,3.0
ketchikan,1,US,1584408370,56,55.34,-131.65,44.6,16.11
anamur,75,TR,1584408370,43,36.08,32.84,55.4,16.11
voh,11,NC,1584408370,77,-20.97,164.7,79.54,15.26
santa maria da vitoria,80,BR,1584408370,93,-13.39,-44.19,70.61,1.52
chibuto,52,MZ,1584408371,87,-24.69,33.53,73.08,11.63
mawlaik,71,MM,1584408371,46,23.63,94.42,68.0,2.77
folldal,100,NO,1584408371,95,62.13,10.0,18.88,7.56
esperance,40,AU,1584408371,65,-33.87,121.9,77.0,14.99
seevetal,0,DE,1584408371,93,53.4,9.97,43.0,1.12
iqaluit,90,CA,1584407991,84,63.75,-68.51,5.0,10.29
muromtsevo,100,RU,1584408372,90,56.37,75.24,22.24,5.48
green river,75,US,1584408314,34,41.53,-109.47,48.2,8.81
rio grande,23,BR,1584408058,83,-32.03,-52.1,69.01,9.82
eureka,75,US,1584408372,61,40.8,-124.16,50.0,9.17
tarangnan,64,PH,1584408372,80,11.9,124.75,77.16,5.57
la palma,90,US,1584408372,93,33.85,-118.05,60.8,15.64
lagunas,70,PE,1584408183,84,-5.23,-75.68,77.0,2.24
xining,0,CN,1584408373,51,36.62,101.77,28.6,4.52
altagracia de orituco,100,VE,1584408373,89,9.86,-66.38,66.42,6.17
esil,100,KZ,1584408065,97,51.96,66.4,32.5,8.21
zhanaozen,100,KZ,1584407987,93,43.3,52.8,35.47,24.16
xucheng,100,CN,1584408168,94,20.35,110.13,73.4,8.95
cherskiy,95,RU,1584408026,82,68.75,161.3,21.2,17.65
desaguadero,71,PE,1584408374,69,-16.57,-69.04,49.86,10.47
esmeraldas,5,BR,1584408374,69,-19.76,-44.31,73.4,2.04
susanville,1,US,1584408374,93,40.42,-120.65,35.6,3.36
pemba,75,MZ,1584408374,100,-12.97,40.52,71.6,4.7
colares,20,PT,1584408374,71,38.8,-9.45,54.0,12.75
izamal,40,MX,1584408322,58,20.93,-89.02,84.2,6.93
rodrigues alves,100,BR,1584408040,98,-7.74,-72.65,74.53,1.83
strezhevoy,0,RU,1584407985,92,60.73,77.59,5.0,6.71
mengyin,50,CN,1584408375,64,35.71,117.93,51.78,4.05
coahuayana,75,MX,1584408375,53,18.73,-103.68,77.0,5.66
katy,75,US,1584408375,100,29.79,-95.82,71.6,10.29
aksarka,100,RU,1584408375,94,66.56,67.8,20.55,15.84
taoudenni,48,ML,1584407956,11,22.68,-3.98,71.78,8.63
rosarito,75,MX,1584408376,55,32.33,-117.03,62.6,13.87
lavrentiya,100,RU,1584408014,93,65.58,-171.0,28.2,5.01
thinadhoo,42,MV,1584407953,71,0.53,72.93,83.7,10.25
haines junction,100,CA,1584407987,82,60.75,-137.51,26.62,5.59
westerland,0,DE,1584408376,83,54.91,8.3,43.0,5.01
kannangad,20,IN,1584408376,94,12.31,75.11,77.0,2.24
arandis,3,NA,1584408377,93,-22.42,14.97,61.0,4.41
lumding,83,IN,1584408377,51,25.75,93.17,61.7,2.08
yomou,88,GN,1584408377,89,7.56,-9.27,75.43,2.75
jiuquan,0,CN,1584408377,36,39.74,98.52,30.24,1.59
weihai,0,CN,1584408377,72,37.5,122.11,45.43,12.95
pisco,20,PE,1584407747,78,-13.7,-76.22,75.2,21.92
livingstone,86,ZM,1584408378,89,-17.84,25.85,66.15,3.69
kirakira,100,SB,1584408054,70,-10.45,161.92,84.16,6.96
dryden,1,CA,1584408378,53,49.78,-92.75,21.2,10.29
jizan,71,SA,1584408378,74,17.33,42.67,78.8,4.7
san ignacio,40,BZ,1584408378,61,17.16,-89.07,82.4,11.41
shache,33,CN,1584408378,27,38.42,77.24,41.94,1.66
mayo,90,US,1584408379,70,38.89,-76.51,48.2,6.93
guerrero,92,MX,1584408379,61,17.67,-100.0,67.23,4.88
pierre,75,US,1584408379,74,44.37,-100.35,30.2,5.82
sorland,100,NO,1584407989,69,67.67,12.69,37.38,29.1
mackenzie,1,CA,1584408379,31,55.3,-123.17,35.6,12.75
vila,22,PT,1584408379,70,42.03,-8.16,51.01,8.05
srednekolymsk,99,RU,1584407991,92,67.45,153.68,-1.21,5.17
ahipara,89,NZ,1584408041,74,-35.17,173.17,66.74,17.87
catumbela,84,AO,1584408380,82,-12.43,13.55,77.86,1.48
xihe,74,CN,1584408380,54,31.69,113.47,57.49,4.05
mogok,60,MM,1584408380,48,22.92,96.5,65.14,1.25
santiago del estero,89,AR,1584408197,94,-27.8,-64.26,64.53,4.63
coihaique,20,CL,1584407930,81,-45.58,-72.07,53.6,1.12
yar-sale,100,RU,1584408026,92,66.83,70.83,19.04,14.97
bannu,53,PK,1584408381,60,32.99,70.6,60.17,1.48
erzin,40,TR,1584408065,100,36.96,36.2,55.4,3.36
mendoza,0,AR,1584408142,53,-32.89,-68.83,75.2,6.93
presidencia roque saenz pena,4,AR,1584408382,58,-26.79,-60.44,78.71,5.08
guanica,40,PR,1584408382,79,17.97,-66.91,78.01,14.99
tortoli,75,IT,1584408382,100,39.93,9.66,59.0,3.36
homer,1,US,1584408382,55,59.64,-151.55,37.4,1.23
yerbogachen,100,RU,1584407988,95,61.28,108.01,25.84,8.37
belaya kholunitsa,74,RU,1584408382,93,58.84,50.85,23.56,8.55
iranshahr,16,IR,1584408383,36,27.2,60.68,60.8,6.93
estelle,75,US,1584408030,88,29.85,-90.11,73.99,8.05
uromi,94,NG,1584408383,80,6.7,6.33,80.83,6.98
hovd,100,MN,1584408383,24,48.01,91.64,31.15,7.2
bodden town,20,KY,1584408383,78,19.28,-81.25,78.8,12.75
sioux lookout,20,CA,1584408383,49,50.1,-91.92,23.0,6.93
sistranda,100,NO,1584408384,60,63.73,8.83,41.0,11.41
olot,90,ES,1584408384,93,42.18,2.49,57.0,10.29
jalu,0,LY,1584408384,34,29.03,21.55,66.27,9.91
alofi,100,NU,1584408384,79,-19.06,-169.92,84.2,8.05
channel-port aux basques,32,CA,1584408384,66,47.57,-59.14,24.96,6.89
tianpeng,40,CN,1584408385,76,30.99,103.94,55.4,0.51
pedasi,63,PA,1584408183,72,7.53,-80.03,79.09,19.1
muravlenko,95,RU,1584408385,83,63.79,74.52,7.95,22.12
valkla,13,EE,1584408385,100,59.47,25.32,26.6,1.12
poya,11,NC,1584408385,76,-21.35,165.15,78.76,13.87
praia,40,CV,1584408385,64,14.92,-23.51,69.8,13.87
necochea,0,AR,1584407970,88,-38.55,-58.74,60.01,8.01
komsomolskiy,76,UZ,1584408030,57,40.43,71.72,51.8,4.7
bairiki,20,KI,1584408232,70,1.33,172.98,87.8,11.41
luis gil perez,20,MX,1584408386,69,17.87,-93.05,80.6,5.82
liverpool,75,GB,1584408387,76,53.41,-2.98,51.01,9.17
labuan,75,MY,1584407999,83,5.28,115.24,82.4,4.7
santa isabel do rio negro,100,BR,1584408014,97,-0.41,-65.02,75.6,0.02
manggar,93,ID,1584408387,72,-2.88,108.27,83.14,7.23
san luis obispo,40,US,1584408258,81,35.28,-120.66,53.01,4.7
hamilton,90,US,1584407995,70,39.18,-84.53,46.4,4.7
umm lajj,0,SA,1584408009,33,25.02,37.27,72.03,4.32
kangaatsiaq,100,GL,1584408387,96,68.31,-53.46,2.44,17.85
meulaboh,80,ID,1584408023,78,4.14,96.13,81.05,4.85
kampot,20,KH,1584408011,69,10.62,104.18,82.4,6.93
upington,34,ZA,1584408388,49,-28.45,21.26,73.4,3.36
krasnoselkup,50,RU,1584408050,84,65.7,82.47,-4.95,16.24
fort nelson,75,CA,1584408013,47,58.81,-122.7,33.8,0.74
barranca,67,PE,1584408388,90,-10.75,-77.77,74.19,11.65
upata,96,VE,1584408389,80,8.01,-62.4,74.14,5.14
itoman,20,JP,1584408005,55,26.12,127.67,64.4,3.36
labuhan,52,ID,1584408389,86,-6.88,112.21,78.08,2.04
svetlaya,50,RU,1584408008,62,46.54,138.33,27.3,14.43
seoul,90,KR,1584408228,81,37.57,126.98,44.6,6.93
sleaford,88,GB,1584408390,75,53.0,-0.41,46.4,20.8
